[{"Longitude":"34.807268","Latitude":"31.155844","name":"algergawi shop"},
{"Longitude":"34.809776","Latitude":"31.15478","name":"electricity pole"},
{"Longitude":"34.811155","Latitude":"31.155101","name":"electric company"},
{"Longitude":"34.820984","Latitude":"31.163493","name":"Al-Azazma School"},
{"Longitude":"34.810717","Latitude":"31.15632","name":"Algergawi Mosque"},
{"Longitude":"34.812421","Latitude":"31.166333","name":"Abu Swilim Building Materials"},
{"Longitude":"34.814712","Latitude":"31.166306","name":"Abu Swilim Mosque"},
{"Longitude":"34.815559","Latitude":"31.163345","name":"Abu Muharib's Butcher Shop"},
{"Longitude":"34.807387","Latitude":"31.155848","name":"Mauhidet Clinic"},
{"Longitude":"34.810585","Latitude":"31.166374","name":"General dental clinic"},
{"Longitude":"34.805685","Latitude":"31.156483","name":"The entry of the electric company"},
{"Longitude":"34.806393","Latitude":"31.155741","name":"The green container"}]